[{"id":"the-guesthouse-hotel-chicago-4","name":"The Guesthouse Hotel","address":["4872 N Clark St"],"city":"Chicago","state":"IL","zip":"60640","lat":41.9709396,"long":-87.6679077},{"id":"virgin-hotels-chicago-chicago-2","name":"Virgin Hotels Chicago","address":["203 N Wabash"],"city":"Chicago","state":"IL","zip":"60601","lat":41.8858649161802,"long":-87.6261693007556},{"id":"wicker-park-inn-chicago","name":"Wicker Park Inn","address":["1329 N Wicker Park Ave"],"city":"Chicago","state":"IL","zip":"60622","lat":41.90654,"long":-87.6728399},{"id":"courtyard-chicago-downtown-magnificent-mile-chicago","name":"Courtyard Chicago Downtown/Magnificent Mile","address":["165 East Ontario Street"],"city":"Chicago","state":"IL","zip":"60611","lat":41.89312,"long":-87.62308},{"id":"hotel-lincoln-chicago-2","name":"Hotel Lincoln","address":["1816 North Clark Street"],"city":"Chicago","state":"IL","zip":"60614","lat":41.9153236,"long":-87.6346272},{"id":"longman-and-eagle-chicago","name":"Longman & Eagle","address":["2657 N Kedzie Ave"],"city":"Chicago","state":"IL","zip":"60647","lat":41.930156679293,"long":-87.707222394898},{"id":"majestic-hotel-chicago","name":"Majestic Hotel","address":["528 W Brompton Ave"],"city":"Chicago","state":"IL","zip":"60657","lat":41.94758,"long":-87.64421},{"id":"kinzie-hotel-chicago","name":"Kinzie Hotel","address":["20 W Kinzie St"],"city":"Chicago","state":"IL","zip":"60654","lat":41.889474,"long":-87.628912},{"id":"best-western-plus-hawthorne-terrace-hotel-chicago","name":"Best Western Plus Hawthorne Terrace Hotel","address":["3434 N Broadway Ave"],"city":"Chicago","state":"IL","zip":"60657","lat":41.944160662915,"long":-87.645628691086},{"id":"the-langham-chicago-chicago","name":"The Langham Chicago","address":["330 N Wabash Ave"],"city":"Chicago","state":"IL","zip":"60611","lat":41.88906,"long":-87.62757},{"id":"loews-chicago-hotel-chicago-4","name":"Loews Chicago Hotel","address":["455 N Park Dr"],"city":"Chicago","state":"IL","zip":"60611","lat":41.8900678156052,"long":-87.6194961192628},{"id":"kimpton-burnham-hotel-chicago","name":"Kimpton Burnham Hotel","address":["1 W Washington St"],"city":"Chicago","state":"IL","zip":"60602","lat":41.88304,"long":-87.62826},{"id":"the-talbott-hotel-chicago","name":"The Talbott Hotel","address":["20 E Delaware Pl"],"city":"Chicago","state":"IL","zip":"60611","lat":41.8993868,"long":-87.6275053},{"id":"the-peninsula-chicago-chicago","name":"The Peninsula Chicago","address":["108 E Superior St"],"city":"Chicago","state":"IL","zip":"60611","lat":41.8959532,"long":-87.6251194},{"id":"hotel-palomar-chicago-a-kimpton-hotel-chicago","name":"Hotel Palomar Chicago, a Kimpton Hotel","address":["505 N State St"],"city":"Chicago","state":"IL","zip":"60654","lat":41.89111,"long":-87.62754},{"id":"days-inn-chicago-chicago","name":"Days Inn Chicago","address":["644 West Diversey Pkwy"],"city":"Chicago","state":"IL","zip":"60614","lat":41.9329771,"long":-87.6455136},{"id":"radisson-blu-aqua-chicago","name":"Radisson Blu Aqua","address":["221 N Columbus Dr"],"city":"Chicago","state":"IL","zip":"60601","lat":41.8863283820531,"long":-87.620290517807},{"id":"the-silversmith-hotel-chicago","name":"The Silversmith Hotel","address":["10 S Wabash Ave"],"city":"Chicago","state":"IL","zip":"60603","lat":41.88164,"long":-87.62671},{"id":"hyatt-place-chicago-downtown-the-loop-chicago-3","name":"Hyatt Place Chicago Downtown/The Loop","address":["28 North Franklin St"],"city":"Chicago","state":"IL","zip":"60606","lat":41.8824333293268,"long":-87.6354883777072},{"id":"chicago-athletic-association-hotel-chicago","name":"Chicago Athletic Association Hotel","address":["12 S Michigan Ave"],"city":"Chicago","state":"IL","zip":"60603","lat":41.8816255,"long":-87.6249418},{"id":"soho-house-chicago","name":"Soho House","address":["113-125 N Green St"],"city":"Chicago","state":"IL","zip":"60607","lat":41.883746,"long":-87.648281},{"id":"residence-inn-by-marriott-chicago","name":"Residence Inn by Marriott","address":["201 E Walton Pl"],"city":"Chicago","state":"IL","zip":"60611","lat":41.8998250040805,"long":-87.6214458793402},{"id":"renaissance-blackstone-chicago-hotel-chicago","name":"Renaissance Blackstone Chicago Hotel","address":["636 S Michigan Ave"],"city":"Chicago","state":"IL","zip":"60605","lat":41.8734108364624,"long":-87.6247296557778},{"id":"sofitel-chicago-water-tower-chicago-2","name":"Sofitel Chicago Water Tower","address":["20 E Chestnut St"],"city":"Chicago","state":"IL","zip":"60611","lat":41.89855,"long":-87.6274},{"id":"fairfield-inn-and-suites-chicago-downtown-river-north-chicago","name":"Fairfield Inn & Suites Chicago Downtown/River North","address":["60 West Illinois Street"],"city":"Chicago","state":"IL","zip":"60654","lat":41.8909645,"long":-87.6304626},{"id":"hostelling-international-chicago-chicago","name":"Hostelling International Chicago","address":["24 E Congress Pkwy"],"city":"Chicago","state":"IL","zip":"60605","lat":41.8758549,"long":-87.6268633},{"id":"residence-inn-chicago-downtown-loop-chicago","name":"Residence Inn Chicago Downtown/Loop","address":["11 South LaSalle St"],"city":"Chicago","state":"IL","zip":"60603","lat":41.8815897370352,"long":-87.6321002840996},{"id":"the-wit-a-doubletree-by-hilton-chicago","name":"The Wit - A DoubleTree By Hilton","address":["201 N State St"],"city":"Chicago","state":"IL","zip":"60601","lat":41.8860699,"long":-87.6276199},{"id":"jw-marriott-chicago-chicago","name":"JW Marriott Chicago","address":["151 West Adams Street"],"city":"Chicago","state":"IL","zip":"60603","lat":41.8790588,"long":-87.6330185},{"id":"trump-international-hotel-and-tower-chicago-chicago-2","name":"Trump International Hotel & Tower Chicago","address":["401 N Wabash Ave"],"city":"Chicago","state":"IL","zip":"60611","lat":41.88922,"long":-87.62655},{"id":"acme-hotel-company-chicago","name":"ACME Hotel Company","address":["15 East Ohio Street"],"city":"Chicago","state":"IL","zip":"60611","lat":41.8923378,"long":-87.6276855},{"id":"hyatt-place-chicago-south-university-medical-center-chicago","name":"Hyatt Place Chicago South-University Medical Center","address":["5225 S. Harper Avenue"],"city":"Chicago","state":"IL","zip":"60615","lat":41.8001663643541,"long":-87.5892843180713},{"id":"thompson-chicago-chicago-3","name":"Thompson Chicago","address":["21 East Bellevue Place"],"city":"Chicago","state":"IL","zip":"60611","lat":41.9014358,"long":-87.6276593},{"id":"aloft-chicago-city-center-chicago","name":"Aloft Chicago City Center","address":["515 North Clark Street"],"city":"Chicago","state":"IL","zip":"60654","lat":41.891378,"long":-87.630815},{"id":"residence-inn-chicago-downtown-river-north-chicago","name":"Residence Inn Chicago Downtown/River North","address":["410 North Dearborn Street"],"city":"Chicago","state":"IL","zip":"60654","lat":41.88949,"long":-87.6298599},{"id":"waldorf-astoria-chicago-chicago-2","name":"Waldorf Astoria Chicago","address":["11 E Walton St"],"city":"Chicago","state":"IL","zip":"60611","lat":41.8997116,"long":-87.6277618},{"id":"four-seasons-hotel-chicago-chicago","name":"Four Seasons Hotel Chicago","address":["120 E Delaware Pl"],"city":"Chicago","state":"IL","zip":"60611","lat":41.8993191,"long":-87.6251117},{"id":"loews-chicago-hotel-chicago-2","name":"Loews Chicago Hotel","address":["455 N Park Dr"],"city":"Chicago","state":"IL","zip":"60611","lat":41.8900678156052,"long":-87.6194961192628},{"id":"renaissance-chicago-downtown-hotel-chicago","name":"Renaissance Chicago Downtown Hotel","address":["1 West Upper Wacker Dr"],"city":"Chicago","state":"IL","zip":"60601","lat":41.88653,"long":-87.62751},{"id":"willows-hotel-chicago","name":"Willows Hotel","address":["555 W Surf St"],"city":"Chicago","state":"IL","zip":"60657","lat":41.93387,"long":-87.64357},{"id":"la-quinta-inn-and-suites-chicago-downtown-chicago","name":"La Quinta Inn & Suites Chicago Downtown","address":["One South Franklin"],"city":"Chicago","state":"IL","zip":"60606","lat":41.8815453,"long":-87.6350572},{"id":"holiday-inn-express-chicago-magnificent-mile-chicago","name":"Holiday Inn Express Chicago - Magnificent Mile","address":["640 N Wabash Ave"],"city":"Chicago","state":"IL","zip":"60611","lat":41.89377,"long":-87.62707},{"id":"hampton-inn-majestic-chicago-theatre-district-hotel-chicago","name":"Hampton Inn Majestic Chicago Theatre District Hotel","address":["22 West Monroe"],"city":"Chicago","state":"IL","zip":"60603","lat":41.88107,"long":-87.6286},{"id":"city-suites-hotel-chicago-chicago","name":"City Suites Hotel Chicago","address":["933 W Belmont Ave"],"city":"Chicago","state":"IL","zip":"60657","lat":41.93964,"long":-87.65292},{"id":"holiday-inn-chicago-mart-plaza-river-north-chicago-4","name":"Holiday Inn Chicago Mart Plaza River North","address":["350 West Mart Center Dr"],"city":"Chicago","state":"IL","zip":"60654","lat":41.888434,"long":-87.637866},{"id":"house-of-two-urns-bed-and-breakfast-chicago","name":"House of Two Urns Bed and Breakfast","address":["1239 N Greenview Ave"],"city":"Chicago","state":"IL","zip":"60642","lat":41.90457,"long":-87.6646899},{"id":"london-house-chicago","name":"London House","address":["85 E Wacker Dr"],"city":"Chicago","state":"IL","zip":"60601","lat":41.8877865,"long":-87.6254622},{"id":"palmer-house-a-hilton-hotel-chicago","name":"Palmer House A Hilton Hotel","address":["17 E Monroe St"],"city":"Chicago","state":"IL","zip":"60603","lat":41.880703,"long":-87.627077},{"id":"kimpton-hotel-allegro-chicago-chicago","name":"Kimpton Hotel Allegro Chicago","address":["171 W Randolph St"],"city":"Chicago","state":"IL","zip":"60601","lat":41.88433,"long":-87.63313},{"id":"carlton-inn-midway-chicago","name":"Carlton Inn Midway","address":["4944 South Archer Ave"],"city":"Chicago","state":"IL","zip":"60632","lat":41.80377,"long":-87.72188},{"id":"crowne-plaza-chicago-metro-downtown-chicago-2","name":"Crowne Plaza Chicago Metro Downtown","address":["733 West Madison"],"city":"Chicago","state":"IL","zip":"60661","lat":41.88111,"long":-87.64648},{"id":"hotel-indigo-chicago-downtown-gold-coast-chicago-3","name":"Hotel Indigo Chicago Downtown Gold Coast","address":["1244 N Dearborn Pkwy"],"city":"Chicago","state":"IL","zip":"60610","lat":41.9052099,"long":-87.63045},{"id":"the-westin-chicago-river-north-chicago","name":"The Westin Chicago River North","address":["320 North Dearborn Street"],"city":"Chicago","state":"IL","zip":"60654","lat":41.8882133,"long":-87.6297088},{"id":"dana-hotel-and-spa-chicago","name":"Dana Hotel & Spa","address":["660 North State St"],"city":"Chicago","state":"IL","zip":"60654","lat":41.8942645,"long":-87.6283025},{"id":"hilton-garden-inn-chicago-downtown-magnificent-mile-chicago-2","name":"Hilton Garden Inn Chicago Downtown/Magnificent Mile","address":["10 E Grand Ave"],"city":"Chicago","state":"IL","zip":"60611","lat":41.892,"long":-87.6275},{"id":"hyatt-regency-chicago-chicago-3","name":"Hyatt Regency Chicago","address":["151 E Wacker Dr"],"city":"Chicago","state":"IL","zip":"60601","lat":41.88769,"long":-87.62286},{"id":"doubletree-by-hilton-hotel-chicago-magnificent-mile-chicago","name":"DoubleTree by Hilton Hotel Chicago - Magnificent Mile","address":["300 E Ohio St"],"city":"Chicago","state":"IL","zip":"60611","lat":41.892854433787,"long":-87.61969859614},{"id":"embassy-suites-chicago-downtown-lakefront-chicago","name":"Embassy Suites Chicago Downtown Lakefront","address":["511 N Columbus Dr"],"city":"Chicago","state":"IL","zip":"60611","lat":41.89131,"long":-87.61979},{"id":"hyatt-regency-mccormick-place-chicago","name":"Hyatt Regency McCormick Place","address":["2233 S Dr Martin Luther King Jr Dr"],"city":"Chicago","state":"IL","zip":"60616","lat":41.852192,"long":-87.618598},{"id":"w-chicago-lakeshore-chicago-2","name":"W Chicago - Lakeshore","address":["644 North Lake Shore Drive"],"city":"Chicago","state":"IL","zip":"60611","lat":41.8939,"long":-87.61563},{"id":"holiday-inn-hotel-and-suites-chicago-downtown-chicago","name":"Holiday Inn Hotel & Suites Chicago-Downtown","address":["506 W Harrison St"],"city":"Chicago","state":"IL","zip":"60607","lat":41.8745512,"long":-87.640096},{"id":"hilton-chicago-chicago-4","name":"Hilton Chicago","address":["720 S Michigan Ave"],"city":"Chicago","state":"IL","zip":"60605","lat":41.8726069900297,"long":-87.6243862918381},{"id":"public-chicago-chicago","name":"PUBLIC Chicago","address":["1301 North State Pkwy"],"city":"Chicago","state":"IL","zip":"60610","lat":41.905846,"long":-87.628719},{"id":"chicago-south-loop-hotel-chicago","name":"Chicago South Loop Hotel","address":["11 W 26th St"],"city":"Chicago","state":"IL","zip":"60616","lat":41.8453422036375,"long":-87.6275238488297},{"id":"courtyard-chicago-downtown-river-north-chicago-2","name":"Courtyard Chicago Downtown/River North","address":["30 East Hubbard"],"city":"Chicago","state":"IL","zip":"60611","lat":41.8902116,"long":-87.6273216},{"id":"hampton-inn-chicago-5","name":"Hampton Inn","address":["68 E Wacker Pl"],"city":"Chicago","state":"IL","zip":"60601","lat":41.8869549,"long":-87.6255184},{"id":"swissôtel-chicago-chicago-3","name":"Swissôtel Chicago","address":["323 East Upper Wacker Drive"],"city":"Chicago","state":"IL","zip":"60601","lat":41.8876766,"long":-87.6205247},{"id":"the-james-chicago-chicago","name":"The James Chicago","address":["55 E Ontario St"],"city":"Chicago","state":"IL","zip":"60611","lat":41.8931814103866,"long":-87.6257629325409},{"id":"springhill-suites-chicago-downtown-river-north-chicago","name":"SpringHill Suites Chicago Downtown/River North","address":["410 N Dearborn St"],"city":"Chicago","state":"IL","zip":"60654","lat":41.889581760286,"long":-87.629902143581},{"id":"hyatt-place-chicago-river-north-chicago-2","name":"Hyatt Place Chicago/River North","address":["66 West Illinois Street"],"city":"Chicago","state":"IL","zip":"60654","lat":41.8909645,"long":-87.6302948},{"id":"the-godfrey-hotel-chicago-chicago","name":"The Godfrey Hotel Chicago","address":["127 W Huron"],"city":"Chicago","state":"IL","zip":"60654","lat":41.894585,"long":-87.631963},{"id":"fairmont-chicago-millennium-park-chicago-3","name":"Fairmont Chicago, Millennium Park","address":["200 North Columbus Drive"],"city":"Chicago","state":"IL","zip":"60601","lat":41.886112841294,"long":-87.621051476607},{"id":"the-drake-hotel-chicago-2","name":"The Drake Hotel","address":["140 E Walton St"],"city":"Chicago","state":"IL","zip":"60611","lat":41.9001344,"long":-87.6243857},{"id":"chicago-marriott-at-medical-district-uic-chicago-2","name":"Chicago Marriott at Medical District/UIC","address":["625 South Ashland Avenue at Harrison Street"],"city":"Chicago","state":"IL","zip":"60607","lat":41.8738837,"long":-87.6660615},{"id":"the-ivy-boutique-hotel-chicago","name":"The IVY Boutique Hotel","address":["233 E Ontario St"],"city":"Chicago","state":"IL","zip":"60611","lat":41.8932330762828,"long":-87.6214386091051},{"id":"holiday-inn-chicago-midway-airport-chicago","name":"Holiday Inn Chicago - Midway Airport","address":["6624 S Cicero Avenue"],"city":"Chicago","state":"IL","zip":"60638","lat":41.7723344,"long":-87.7422249},{"id":"central-loop-hotel-chicago","name":"Central Loop Hotel","address":["111 W Adams St"],"city":"Chicago","state":"IL","zip":"60603","lat":41.8792851,"long":-87.6310899},{"id":"hyatt-chicago-magnificient-mile-chicago","name":"Hyatt Chicago Magnificient Mile","address":["633 N Saint Clair St"],"city":"Chicago","state":"IL","zip":"60611","lat":41.893844,"long":-87.6226401},{"id":"the-ritz-carlton-chicago-chicago-3","name":"The Ritz-Carlton, Chicago","address":["160 E Pearson St"],"city":"Chicago","state":"IL","zip":"60611","lat":41.89773,"long":-87.6235},{"id":"intercontinental-chicago-magnificent-mile-chicago","name":"InterContinental Chicago Magnificent Mile","address":["505 N Michigan Ave"],"city":"Chicago","state":"IL","zip":"60611","lat":41.8913113,"long":-87.6240589},{"id":"omni-chicago-hotel-chicago","name":"Omni Chicago Hotel","address":["676 N. Michigan Ave"],"city":"Chicago","state":"IL","zip":"60611","lat":41.8947702613124,"long":-87.6248069342462},{"id":"raffaello-hotel-chicago-2","name":"Raffaello Hotel","address":["201 East Delaware Pl"],"city":"Chicago","state":"IL","zip":"60611","lat":41.899083,"long":-87.621697},{"id":"hotel-chicago-downtown-autograph-collection-chicago","name":"Hotel Chicago Downtown, Autograph Collection","address":["333 North Dearborn St"],"city":"Chicago","state":"IL","zip":"60654","lat":41.88835,"long":-87.62881},{"id":"homewood-suites-by-hilton-chicago-downtown-chicago-4","name":"Homewood Suites by Hilton Chicago-Downtown","address":["40 E. Grand Ave"],"city":"Chicago","state":"IL","zip":"60611","lat":41.8918199,"long":-87.6264733},{"id":"hampton-inn-and-suites-chicago-downtown-chicago","name":"Hampton Inn & Suites Chicago Downtown","address":["33 West Illinois"],"city":"Chicago","state":"IL","zip":"60654","lat":41.89069,"long":-87.62934},{"id":"hotel-felix-chicago","name":"Hotel Felix","address":["111 W Huron St"],"city":"Chicago","state":"IL","zip":"60654","lat":41.89483,"long":-87.63157},{"id":"welcome-inn-manor-bed-and-breakfast-chicago-2","name":"Welcome Inn Manor Bed & Breakfast","address":["4563 S Michigan Ave"],"city":"Chicago","state":"IL","zip":"60653","lat":41.811268,"long":-87.6223909},{"id":"ac-hotel-chicago-downtown-chicago","name":"AC Hotel Chicago Downtown","address":["630 North Rush Street"],"city":"Chicago","state":"IL","zip":"60611","lat":41.8935242,"long":-87.6255264},{"id":"chicago-river-hotel-chicago","name":"Chicago River Hotel","address":["75 E Wacker Dr"],"city":"Chicago","state":"IL","zip":"60601","lat":41.88762,"long":-87.62544},{"id":"hilton-chicago-magnificent-mile-suites-chicago","name":"Hilton Chicago/Magnificent Mile Suites","address":["198 E Delaware Pl"],"city":"Chicago","state":"IL","zip":"60611","lat":41.89952,"long":-87.6222499},{"id":"the-gwen-a-luxury-collection-hotel-chicago","name":"The Gwen, A Luxury Collection Hotel","address":["521 N Rush St"],"city":"Chicago","state":"IL","zip":"60611","lat":41.8912568,"long":-87.6253654},{"id":"sheraton-grand-chicago-chicago","name":"Sheraton Grand Chicago","address":["301 En Water St"],"city":"Chicago","state":"IL","zip":"60611","lat":41.8893181939435,"long":-87.6200317486081},{"id":"hotel-blake-an-ascend-hotel-collection-member-chicago-2","name":"Hotel Blake, an Ascend Hotel Collection Member","address":["500 S Dearborn St"],"city":"Chicago","state":"IL","zip":"60605","lat":41.875164,"long":-87.629485},{"id":"hotel-chicago-chicago-2","name":"Hotel Chicago","address":["1622 W Jackson St"],"city":"Chicago","state":"IL","zip":"60612","lat":41.87792,"long":-87.66777},{"id":"hampton-inn-chicago-downtown-magnificent-mile-chicago-2","name":"Hampton Inn Chicago Downtown/Magnificent Mile","address":["160 E Huron"],"city":"Chicago","state":"IL","zip":"60611","lat":41.89524,"long":-87.6232},{"id":"millennium-knickerbocker-hotel-chicago","name":"Millennium Knickerbocker Hotel","address":["163 E Walton Place"],"city":"Chicago","state":"IL","zip":"60611","lat":41.8998,"long":-87.62271},{"id":"manilow-suites-chicago-7","name":"Manilow Suites","address":["175 N Harbor Dr"],"city":"Chicago","state":"IL","zip":"60601","lat":41.8855956,"long":-87.6156017},{"id":"renaissance-chicago-o-hare-suites-hotel-chicago-2","name":"Renaissance Chicago O'Hare Suites Hotel","address":["8500 West Bryn Mawr Avenue"],"city":"Chicago","state":"IL","zip":"60631","lat":41.981205,"long":-87.8392334},{"id":"old-chicago-inn-chicago","name":"Old Chicago Inn","address":["3222 N Sheffield Ave"],"city":"Chicago","state":"IL","zip":"60657","lat":41.94065,"long":-87.65452},{"id":"the-westin-michigan-avenue-chicago-chicago","name":"The Westin Michigan Avenue Chicago","address":["909 North Michigan Ave"],"city":"Chicago","state":"IL","zip":"60611","lat":41.8995257337734,"long":-87.6228047822905},{"id":"fairfield-inn-and-suites-chicago-downtown-magnificent-mile-hotel-chicago","name":"Fairfield Inn & Suites Chicago Downtown/Magnificent Mile Hotel","address":["216 East Ontario Street"],"city":"Chicago","state":"IL","zip":"60611","lat":41.89367,"long":-87.62193},{"id":"w-chicago-city-center-chicago-2","name":"W Chicago - City Center","address":["172 West Adams Street"],"city":"Chicago","state":"IL","zip":"60603","lat":41.87973,"long":-87.63314},{"id":"wyndham-grand-chicago-riverfront-chicago","name":"Wyndham Grand Chicago Riverfront","address":["71 E Wacker Dr"],"city":"Chicago","state":"IL","zip":"60601","lat":41.8874096071863,"long":-87.6258321749181},{"id":"hard-rock-hotel-chicago-chicago","name":"Hard Rock Hotel Chicago","address":["230 N Michigan Ave"],"city":"Chicago","state":"IL","zip":"60601","lat":41.8866635574357,"long":-87.6247644253299},{"id":"chicago-marriott-downtown-magnificent-mile-chicago-2","name":"Chicago Marriott Downtown Magnificent Mile","address":["540 North Michigan Avenue"],"city":"Chicago","state":"IL","zip":"60611","lat":41.89213,"long":-87.62461},{"id":"embassy-suites-by-hilton-chicago-downtown-chicago-4","name":"Embassy Suites by Hilton Chicago Downtown","address":["600 N State St"],"city":"Chicago","state":"IL","zip":"60654","lat":41.8927712,"long":-87.6283912},{"id":"park-hyatt-chicago-chicago-3","name":"Park Hyatt Chicago","address":["800 N Michigan Ave"],"city":"Chicago","state":"IL","zip":"60611","lat":41.8969003791372,"long":-87.6250940254826},{"id":"warwick-allerton-chicago-chicago","name":"Warwick Allerton - Chicago","address":["701 N Michigan Ave"],"city":"Chicago","state":"IL","zip":"60611","lat":41.895154,"long":-87.623928},{"id":"essex-chicago","name":"Essex","address":["800 S Michigan Ave"],"city":"Chicago","state":"IL","zip":"60605","lat":41.8717230361364,"long":-87.6245918911542},{"id":"the-whitehall-hotel-chicago","name":"The Whitehall Hotel","address":["105 E Delaware Pl"],"city":"Chicago","state":"IL","zip":"60611","lat":41.899,"long":-87.6257},{"id":"the-villa-toscana-guest-house-chicago","name":"The Villa Toscana Guest House","address":["3447 N Halsted St"],"city":"Chicago","state":"IL","zip":"60657","lat":41.94506,"long":-87.64904},{"id":"club-quarters-chicago","name":"Club Quarters","address":["75 E Wacker Dr"],"city":"Chicago","state":"IL","zip":"60601","lat":41.8879047893123,"long":-87.6251603288098},{"id":"chinatown-hotel-chicago","name":"Chinatown Hotel","address":["214 W 22nd Pl"],"city":"Chicago","state":"IL","zip":"60616","lat":41.85237,"long":-87.63258},{"id":"la-quinta-inn-and-suites-chicago-lake-shore-chicago","name":"La Quinta Inn & Suites Chicago - Lake Shore","address":["4900A S Lake Shore Dr"],"city":"Chicago","state":"IL","zip":"60615","lat":41.8061463931,"long":-87.5858133422127},{"id":"comfort-suites-michigan-avenue-loop-chicago","name":"Comfort Suites Michigan Avenue - Loop","address":["320 North Michigan Ave"],"city":"Chicago","state":"IL","zip":"60601","lat":41.887423,"long":-87.62492},{"id":"club-quarters-chicago-2","name":"Club Quarters","address":["111 W Adams St"],"city":"Chicago","state":"IL","zip":"60686","lat":41.8792851,"long":-87.6310899},{"id":"best-western-river-north-hotel-chicago-2","name":"Best Western River North Hotel","address":["125 W Ohio St"],"city":"Chicago","state":"IL","zip":"60654","lat":41.89218,"long":-87.63231},{"id":"chicago-marriott-midway-chicago","name":"Chicago Marriott Midway","address":["6520 South Cicero Avenue"],"city":"Chicago","state":"IL","zip":"60638","lat":41.77391,"long":-87.74443},{"id":"kimpton-hotel-monaco-chicago-chicago","name":"Kimpton Hotel Monaco Chicago","address":["225 N Wabash Ave"],"city":"Chicago","state":"IL","zip":"60601","lat":41.8864681337098,"long":-87.6265341082282},{"id":"best-western-grant-park-hotel-chicago-2","name":"Best Western Grant Park Hotel","address":["1100 S. Michigan Avenue"],"city":"Chicago","state":"IL","zip":"60605","lat":41.86909,"long":-87.62468},{"id":"springhill-suites-chicago-o-hare-chicago","name":"Springhill Suites Chicago O'Hare","address":["8101 West Higgins Rd"],"city":"Chicago","state":"IL","zip":"60631","lat":41.98512,"long":-87.82987},{"id":"the-congress-plaza-hotel-chicago","name":"The Congress Plaza Hotel","address":["520 S Michigan Ave"],"city":"Chicago","state":"IL","zip":"60605","lat":41.87515,"long":-87.62432},{"id":"the-tremont-chicago-hotel-at-magnificent-mile-chicago","name":"The Tremont Chicago Hotel at Magnificent Mile","address":["100 East Chestnut"],"city":"Chicago","state":"IL","zip":"60611","lat":41.89859,"long":-87.62558},{"id":"chicago-downtown-chicago","name":"Residence Inn Chicago Downtown/Magnificent Mile","address":["201 East Walton Pl"],"city":"Chicago","state":"IL","zip":"60611","lat":41.89982,"long":-87.62144},{"id":"super-8-chicago-loyola-university-chicago","name":"Super 8 Chicago / Loyola University","address":["7300 N. Sheridan Rd."],"city":"Chicago","state":"IL","zip":"60626","lat":42.01418,"long":-87.66467},{"id":"diplomat-motel-chicago","name":"Diplomat Motel","address":["5230 N Lincoln Ave"],"city":"Chicago","state":"IL","zip":"60625","lat":41.9768605,"long":-87.6926171},{"id":"chicago-marriott-o-hare-chicago-3","name":"Chicago Marriott O'Hare","address":["8535 W Higgins Rd"],"city":"Chicago","state":"IL","zip":"60631","lat":41.985883550365,"long":-87.84167819295},{"id":"hilton-chicago-o-hare-airport-chicago-2","name":"Hilton Chicago O'Hare Airport","address":["O'Hare International Airport"],"city":"Chicago","state":"IL","zip":"60666","lat":41.9772517798351,"long":-87.904612820071},{"id":"inn-of-chicago-an-ascend-hotel-collection-member-chicago","name":"Inn of Chicago, an Ascend Hotel Collection Member","address":["162 East Ohio St"],"city":"Chicago","state":"IL","zip":"60611","lat":41.892772,"long":-87.622953},{"id":"red-roof-inn-chicago","name":"Red Roof Inn","address":["162 E Ontario St"],"city":"Chicago","state":"IL","zip":"60611","lat":41.89362,"long":-87.62299},{"id":"the-buckingham-hotel-chicago","name":"The Buckingham Hotel","address":["440 S Lasalle St"],"city":"Chicago","state":"IL","zip":"60605","lat":41.8723402893443,"long":-87.6308125144276},{"id":"ambassador-chicago-2","name":"Ambassador","address":["1300 N. State Parkway"],"city":"Chicago","state":"IL","zip":"60616","lat":41.90599,"long":-87.6289199},{"id":"rays-bucktown-b-and-b-chicago","name":"Ray's Bucktown B&B","address":["2144 N Leavitt St"],"city":"Chicago","state":"IL","zip":"60647","lat":41.9212772,"long":-87.6829235},{"id":"heart-o-chicago-motel-chicago","name":"Heart O' Chicago Motel","address":["5990 N Ridge Ave"],"city":"Chicago","state":"IL","zip":"60660","lat":41.9903384,"long":-87.6716092},{"id":"hyatt-centric-the-loop-chicago-chicago-3","name":"Hyatt Centric The Loop Chicago","address":["100 W Monroe St"],"city":"Chicago","state":"IL","zip":"60603","lat":41.88083,"long":-87.63115},{"id":"travelodge-chicago-downtown-chicago","name":"Travelodge Chicago Downtown","address":["65 East Harrison Street"],"city":"Chicago","state":"IL","zip":"60605","lat":41.87425,"long":-87.62548},{"id":"windsors-the-palmer-house-chicago","name":"Windsor's-the Palmer House","address":["State & Monroe"],"city":"Chicago","state":"IL","zip":"60607","lat":41.82667,"long":-87.62645},{"id":"homewood-suites-by-hilton-chicago-downtown-magnificent-mile-chicago","name":"Homewood Suites by Hilton Chicago Downtown/Magnificent Mile","address":["152 E Huron St"],"city":"Chicago","state":"IL","zip":"60611","lat":41.8949198991312,"long":-87.6236335560679},{"id":"amber-inn-chicago","name":"Amber Inn","address":["3901 S Michigan Ave"],"city":"Chicago","state":"IL","zip":"60653","lat":41.82352,"long":-87.62268},{"id":"holiday-inn-chicago-o-hare-area-chicago","name":"Holiday Inn Chicago O'hare Area","address":["5615 N Cumberland Ave"],"city":"Chicago","state":"IL","zip":"60631","lat":41.9818557695118,"long":-87.8355429315732},{"id":"hilton-chicago","name":"Hilton","address":["O'Hare International Airport","West O'Hare Ave"],"city":"Chicago","state":"IL","zip":"60666","lat":41.977869,"long":-87.905159},{"id":"casa-de-shafar-chicago-2","name":"Casa de Shafar","address":["Kedzie and Armitage"],"city":"Chicago","state":"IL","zip":"60647","lat":41.9174118,"long":-87.7069626},{"id":"standard-club-chicago","name":"Standard Club","address":["320 S Plymouth Ct"],"city":"Chicago","state":"IL","zip":"60604","lat":41.87771,"long":-87.62902},{"id":"comfort-inn-chicago-chicago","name":"Comfort Inn Chicago","address":["15 E. Ohio Street"],"city":"Chicago","state":"IL","zip":"60611","lat":41.89226,"long":-87.6275},{"id":"70-east-walton-residences-chicago-3","name":"70 East Walton Residences","address":["70 E Walton Ave"],"city":"Chicago","state":"IL","zip":"60611","lat":41.9002447,"long":-87.6256484},{"id":"holiday-inn-express-hotel-and-suites-chicago-midway-airport-chicago-2","name":"Holiday Inn Express Hotel & Suites Chicago-Midway Airport","address":["6500 South Cicero Avenue"],"city":"Chicago","state":"IL","zip":"60638","lat":41.77438,"long":-87.74301},{"id":"intercontinental-hotel-pool-chicago","name":"Intercontinental Hotel Pool","address":["505 N. Michigan Avenue, floor 12","Chicago"],"city":"Chicago","state":"IL","zip":"60611","lat":41.8912504,"long":-87.623945},{"id":"stan-mansion-chicago","name":"Stan Mansion","address":["2408 N Kedzie Blvd"],"city":"Chicago","state":"IL","zip":"60647","lat":41.92514,"long":-87.70789},{"id":"teamsters-local-727-chicago","name":"Teamsters Local 727","address":["5940 W Montrose Ave"],"city":"Chicago","state":"IL","zip":"60634","lat":41.96062,"long":-87.7762},{"id":"central-arms-hotel-chicago","name":"Central Arms Hotel","address":["520 E 47th St"],"city":"Chicago","state":"IL","zip":"60653","lat":41.8095782,"long":-87.6131066},{"id":"hotel-piggy-chicago","name":"Hotel Piggy","address":["400 N Lasalle"],"city":"Chicago","state":"IL","zip":"60654","lat":41.8893814,"long":-87.6328506},{"id":"wheeler-mansion-hotel-chicago","name":"Wheeler Mansion Hotel","address":["2020 S Calumet Ave"],"city":"Chicago","state":"IL","zip":"60616","lat":41.85492,"long":-87.61954},{"id":"inn-at-lincoln-park-chicago","name":"Inn At Lincoln Park","address":["601 W Diversey Pkwy"],"city":"Chicago","state":"IL","zip":"60614","lat":41.9325,"long":-87.64383},{"id":"darlington-hotel-chicago","name":"Darlington Hotel","address":["4700 N Racine Ave"],"city":"Chicago","state":"IL","zip":"60640","lat":41.96739,"long":-87.66006},{"id":"courtyard-by-marriott-chicago-4","name":"Courtyard by Marriott","address":[],"city":"Chicago","state":"IL","zip":"60607","lat":41.8743,"long":-87.65017},{"id":"fullerton-hotel-chicago","name":"Fullerton Hotel","address":["3919 W Fullerton Ave"],"city":"Chicago","state":"IL","zip":"60647","lat":41.9242,"long":-87.7251},{"id":"the-kimpton-gray-hotel-chicago","name":"The Kimpton Gray Hotel","address":["122 W Monroe St"],"city":"Chicago","state":"IL","zip":"60603","lat":41.88088,"long":-87.63175},{"id":"hotel-rush-chicago","name":"Hotel Rush","address":["630 N Rush St"],"city":"Chicago","state":"IL","zip":"60611","lat":41.8934587299366,"long":-87.6256240301769},{"id":"marriott-springhill-suites-chicago-river-north-chicago","name":"Marriott SpringHill Suites Chicago River North","address":["410 N Dearborn St"],"city":"Chicago","state":"IL","zip":"60654","lat":41.8895416,"long":-87.6297073},{"id":"ohio-house-motel-chicago","name":"Ohio House Motel","address":["600 N La Salle Dr"],"city":"Chicago","state":"IL","zip":"60654","lat":41.8927097,"long":-87.6328177}]
