[{"id":"velvet-taco-chicago","name":"Velvet Taco","address":["1110 N State St"],"city":"Chicago","state":"IL","zip":"60610","lat":41.9021988,"long":-87.6285782},{"id":"seoul-taco-chicago-2","name":"Seoul Taco","address":["738 N Clark St"],"city":"Chicago","state":"IL","zip":"60654","lat":41.8959233394607,"long":-87.6313957501562},{"id":"taqueria-el-asadero-chicago-2","name":"Taqueria El Asadero","address":["2213 W Montrose Ave"],"city":"Chicago","state":"IL","zip":"60618","lat":41.9612451,"long":-87.6842599},{"id":"taco-joint-chicago","name":"Taco Joint","address":["1969 N Halsted St"],"city":"Chicago","state":"IL","zip":"60614","lat":41.91791,"long":-87.648371},{"id":"antique-taco-chicago","name":"Antique Taco","address":["1360 N Milwaukee Ave"],"city":"Chicago","state":"IL","zip":"60622","lat":41.9063606,"long":-87.6716766},{"id":"cochinita-taco-co-chicago-2","name":"Cochinita Taco Co.","address":["3938 N Central Ave"],"city":"Chicago","state":"IL","zip":"60634","lat":41.9524847,"long":-87.7672264},{"id":"el-habanero-chicago","name":"El Habanero","address":["3300 W Fullerton Ave"],"city":"Chicago","state":"IL","zip":"60647","lat":41.9249611,"long":-87.7109909},{"id":"pueblo-nuevo-chicago","name":"Pueblo Nuevo","address":["4342 N Central Ave"],"city":"Chicago","state":"IL","zip":"60634","lat":41.960272,"long":-87.76744},{"id":"taqueria-traspasada-chicago-2","name":"Taqueria Traspasada","address":["811 N Ashland Ave"],"city":"Chicago","state":"IL","zip":"60622","lat":41.89633,"long":-87.66705},{"id":"chilango-mexican-street-food-chicago","name":"Chilango Mexican Street Food","address":["1437 W Taylor St"],"city":"Chicago","state":"IL","zip":"60607","lat":41.869141,"long":-87.663125},{"id":"buzz-bait-taqueria-chicago","name":"Buzz Bait Taqueria","address":["1529 N Wells St"],"city":"Chicago","state":"IL","zip":"60611","lat":41.910140782844,"long":-87.6345324232874},{"id":"primo-chukis-chicago","name":"Primo Chuki's","address":["1726 W Lawrence"],"city":"Chicago","state":"IL","zip":"60640","lat":41.968915589254,"long":-87.6720987260342},{"id":"el-taco-feliz-taqueria-chicago","name":"El Taco Feliz Taqueria","address":["5439 W Addison St"],"city":"Chicago","state":"IL","zip":"60641","lat":41.9456596,"long":-87.7633514},{"id":"hyde-park-taco-station-chicago","name":"Hyde Park Taco Station","address":["5300 S Dorchester Ave"],"city":"Chicago","state":"IL","zip":"60615","lat":41.7993505395574,"long":-87.5920339191647},{"id":"marys-taqueria-chicago","name":"Mary's Taqueria","address":["1901 S Canalport Ave"],"city":"Chicago","state":"IL","zip":"60616","lat":41.8564796,"long":-87.6420517},{"id":"taqueria-mazamitla-chicago-2","name":"Taqueria Mazamitla","address":["3610 W Belmont Ave"],"city":"Chicago","state":"IL","zip":"60618","lat":41.9391835562765,"long":-87.7177961519554},{"id":"taqueria-el-tapatio-chicago","name":"Taqueria El Tapatio","address":["4238 W Fullerton Ave"],"city":"Chicago","state":"IL","zip":"60639","lat":41.92471,"long":-87.73325},{"id":"salsita-chicago-2","name":"Salsita","address":["3706 N Halsted St"],"city":"Chicago","state":"IL","zip":"60613","lat":41.9493255,"long":-87.649715},{"id":"carnitas-uruapan-restaurant-chicago","name":"Carnitas Uruapan Restaurant","address":["1725 W 18th St"],"city":"Chicago","state":"IL","zip":"60608","lat":41.857612801225,"long":-87.669703625051},{"id":"el-nuevo-taco-loco-chicago","name":"El Nuevo Taco Loco","address":["1700 W Lawrence Ave"],"city":"Chicago","state":"IL","zip":"60640","lat":41.9689844,"long":-87.6712421},{"id":"carmelas-taqueria-chicago-2","name":"Carmela's Taqueria","address":["1206 W Lawrence Ave"],"city":"Chicago","state":"IL","zip":"60640","lat":41.969132,"long":-87.6603802},{"id":"taqueria-moran-chicago-3","name":"Taqueria Moran","address":["2226 N California Ave"],"city":"Chicago","state":"IL","zip":"60647","lat":41.9225235,"long":-87.6975327},{"id":"torta-haüs-chicago-2","name":"Torta Haüs","address":["926 W Diversey Pkwy"],"city":"Chicago","state":"IL","zip":"60614","lat":41.9327624214964,"long":-87.6525796204805},{"id":"el-comalito-chicago","name":"El Comalito","address":["2234 N Western Ave"],"city":"Chicago","state":"IL","zip":"60647","lat":41.92268,"long":-87.68796},{"id":"taco-el-jalisciense-chicago-3","name":"Taco el Jalisciense","address":["2859 W Chicago Ave"],"city":"Chicago","state":"IL","zip":"60622","lat":41.8955552684926,"long":-87.6992754441786},{"id":"taqueria-and-restaurant-cd-hidalgo-chicago","name":"Taqueria & Restaurant Cd. Hidalgo","address":["7104 N Clark"],"city":"Chicago","state":"IL","zip":"60626","lat":42.0117035,"long":-87.6746674},{"id":"el-carrito-chicago","name":"El Carrito","address":["6019 N Lincoln Ave"],"city":"Chicago","state":"IL","zip":"60659","lat":41.9907368061156,"long":-87.7076021281604},{"id":"taqueria-los-comales-3-chicago","name":"Taqueria Los Comales 3","address":["1544 W 18th St"],"city":"Chicago","state":"IL","zip":"60608","lat":41.85795,"long":-87.66553},{"id":"martinez-supermarket-chicago","name":"Martinez Supermarket","address":["3301 S Morgan St"],"city":"Chicago","state":"IL","zip":"60608","lat":41.83469,"long":-87.65071},{"id":"salsa-picante-chicago","name":"Salsa Picante","address":["949 N Western Ave"],"city":"Chicago","state":"IL","zip":"60622","lat":41.8989601,"long":-87.6865921},{"id":"jarabe-mexican-street-food-chicago","name":"Jarabe- Mexican Street Food","address":["2255 W Taylor St"],"city":"Chicago","state":"IL","zip":"60612","lat":41.86886,"long":-87.68334},{"id":"xoco-chicago","name":"Xoco","address":["449 N Clark St"],"city":"Chicago","state":"IL","zip":"60654","lat":41.89071,"long":-87.6307999},{"id":"mas-alla-del-sol-chicago","name":"Mas Alla Del Sol","address":["5848 N Broadway St"],"city":"Chicago","state":"IL","zip":"60660","lat":41.9884118474889,"long":-87.6604411700977},{"id":"chavas-tacos-chicago","name":"Chavas Tacos","address":["2333 W Grand Ave"],"city":"Chicago","state":"IL","zip":"60612","lat":41.89045,"long":-87.68557},{"id":"frontera-fresco-chicago","name":"Frontera Fresco","address":["111 N State St"],"city":"Chicago","state":"IL","zip":"60602","lat":41.88421,"long":-87.62738},{"id":"turbo-tacos-chicago","name":"Turbo Tacos","address":["2050 N Milwaukee Ave"],"city":"Chicago","state":"IL","zip":"60647","lat":41.9184303,"long":-87.690567},{"id":"taqueria-traspasada-chicago-4","name":"Taqueria Traspasada","address":["3144 N California Ave"],"city":"Chicago","state":"IL","zip":"60618","lat":41.93897,"long":-87.69811},{"id":"rojo-gusano-chicago-2","name":"Rojo Gusano","address":["3830 W Lawrence Ave"],"city":"Chicago","state":"IL","zip":"60625","lat":41.9684136,"long":-87.7246131},{"id":"federales-chicago","name":"Federales","address":["180 North Morgan St"],"city":"Chicago","state":"IL","zip":"60607","lat":41.8853037,"long":-87.6522808},{"id":"antique-taco-chicago-7","name":"Antique Taco","address":["1000 W 35th St"],"city":"Chicago","state":"IL","zip":"60609","lat":41.8309553725385,"long":-87.6510953530669},{"id":"pacos-tacos-chicago","name":"Paco's Tacos","address":["4311 S Archer Ave"],"city":"Chicago","state":"IL","zip":"60608","lat":41.8151254718337,"long":-87.7024227957367},{"id":"big-star-chicago","name":"Big Star","address":["1531 N Damen"],"city":"Chicago","state":"IL","zip":"60622","lat":41.909228215006,"long":-87.677153784986},{"id":"de-pasada-chicago-2","name":"De Pasada","address":["1517 W Taylor St"],"city":"Chicago","state":"IL","zip":"60607","lat":41.86905,"long":-87.6648},{"id":"azteca-grill-chicago-2","name":"Azteca Grill","address":["3731 N Clark St"],"city":"Chicago","state":"IL","zip":"60613","lat":41.949852,"long":-87.658374},{"id":"la-lagartija-taqueria-chicago-2","name":"La Lagartija Taqueria","address":["132 S Ashland Ave"],"city":"Chicago","state":"IL","zip":"60607","lat":41.8793561,"long":-87.6669304},{"id":"atotonilco-restaurant-chicago","name":"Atotonilco Restaurant","address":["3916 W 26th St"],"city":"Chicago","state":"IL","zip":"60623","lat":41.84452,"long":-87.72286},{"id":"mago-grill-and-cantina-roosevelt-collection-chicago-3","name":"Mago Grill & Cantina - Roosevelt Collection","address":["1010 S Delano Ct"],"city":"Chicago","state":"IL","zip":"60605","lat":41.8693234,"long":-87.6329449},{"id":"cafe-el-tapatio-chicago-4","name":"Cafe El Tapatio","address":["3400 N Ashland Ave"],"city":"Chicago","state":"IL","zip":"60657","lat":41.94357,"long":-87.66913},{"id":"taco-in-a-bag-chicago","name":"Taco In A Bag","address":["4603 N Lincoln Ave"],"city":"Chicago","state":"IL","zip":"60625","lat":41.9650921890559,"long":-87.6860547621058},{"id":"tákoz-chicago-4","name":"TáKoz","address":["2229 W Taylor St"],"city":"Chicago","state":"IL","zip":"60612","lat":41.868721,"long":-87.6823578},{"id":"birrieria-zaragoza-chicago","name":"Birrieria Zaragoza","address":["4852 S Pulaski Rd"],"city":"Chicago","state":"IL","zip":"60632","lat":41.80447,"long":-87.72385},{"id":"tacos-tequilas-chicago","name":"Tacos Tequilas","address":["2919 N Milwaukee Ave"],"city":"Chicago","state":"IL","zip":"60618","lat":41.934495,"long":-87.71571},{"id":"taqueria-san-juanito-chicago","name":"Taqueria San Juanito","address":["4714 N Kedzie Ave"],"city":"Chicago","state":"IL","zip":"60625","lat":41.9670972,"long":-87.7086249},{"id":"birrieria-reyes-de-ocotlan-chicago","name":"Birrieria Reyes de Ocotlan","address":["1322 W 18th St"],"city":"Chicago","state":"IL","zip":"60608","lat":41.85816,"long":-87.65982},{"id":"el-nuevo-mexicano-chicago","name":"El Nuevo Mexicano","address":["2914 N Clark St"],"city":"Chicago","state":"IL","zip":"60657","lat":41.9352732,"long":-87.6470639},{"id":"taco-joint-chicago-3","name":"Taco Joint","address":["158 W Ontario St"],"city":"Chicago","state":"IL","zip":"60654","lat":41.8933196,"long":-87.6331416},{"id":"la-cocina-chicago-3","name":"La Cocina","address":["178 N Franklin St"],"city":"Chicago","state":"IL","zip":"60606","lat":41.88526,"long":-87.6357},{"id":"new-rebozo-chicago-chicago","name":"New Rebozo Chicago","address":["46 E Superior St","Ground Fl"],"city":"Chicago","state":"IL","zip":"60611","lat":41.8958387794489,"long":-87.6263744324445},{"id":"buena-vista-chicago","name":"Buena Vista","address":["3147 N. Broadway"],"city":"Chicago","state":"IL","zip":"60657","lat":41.9389519,"long":-87.6441662},{"id":"taco-and-burrito-palace-chicago","name":"Taco & Burrito Palace","address":["3507 N Halsted St"],"city":"Chicago","state":"IL","zip":"60657","lat":41.9457501,"long":-87.6492514},{"id":"taco-and-burrito-palace-2-chicago-2","name":"Taco & Burrito Palace #2","address":["2459 N Halsted St"],"city":"Chicago","state":"IL","zip":"60614","lat":41.92719,"long":-87.64846},{"id":"taqueria-5-de-mayo-chicago","name":"Taqueria 5 de Mayo","address":["2415 W Montrose Ave"],"city":"Chicago","state":"IL","zip":"60618","lat":41.9610979257427,"long":-87.6893359422684},{"id":"taqueria-atotonilco-chicago","name":"Taqueria Atotonilco","address":["1637 S Blue Island Ave"],"city":"Chicago","state":"IL","zip":"60608","lat":41.8586740902876,"long":-87.6600559428334},{"id":"los-3-panchos-chicago","name":"Los 3 Panchos","address":["1155 W Diversey Pkwy"],"city":"Chicago","state":"IL","zip":"60614","lat":41.932502,"long":-87.658004},{"id":"bar-takito-chicago","name":"Bar Takito","address":["201 N Morgan St"],"city":"Chicago","state":"IL","zip":"60607","lat":41.88569,"long":-87.6519851},{"id":"flacos-tacos-chicago","name":"Flaco's Tacos","address":["725 S Dearborn St"],"city":"Chicago","state":"IL","zip":"60605","lat":41.8728063,"long":-87.6289506},{"id":"broken-english-taco-pub-chicago","name":"Broken English Taco Pub","address":["75 E Lake St"],"city":"Chicago","state":"IL","zip":"60601","lat":41.8856244,"long":-87.6250087},{"id":"bullhead-cantina-chicago","name":"Bullhead Cantina","address":["1143 N California"],"city":"Chicago","state":"IL","zip":"60622","lat":41.9022902121953,"long":-87.6964375079613},{"id":"el-pulpo-loco-chicago","name":"El Pulpo Loco","address":["6619 N Clark Ave"],"city":"Chicago","state":"IL","zip":"60626","lat":42.0022812,"long":-87.6716766},{"id":"takos-koreanos-chicago-4","name":"Takos Koreanos","address":["1706 W Foster Ave"],"city":"Chicago","state":"IL","zip":"60640","lat":41.9761833591692,"long":-87.6728102141167},{"id":"tacos-palas-chicago","name":"Tacos Palas","address":["1700 S Halsted St"],"city":"Chicago","state":"IL","zip":"60608","lat":41.85901,"long":-87.64697},{"id":"restaurante-el-mogote-chicago-4","name":"Restaurante El Mogote","address":["4959 N Kedzie Ave"],"city":"Chicago","state":"IL","zip":"60625","lat":41.971435,"long":-87.7083697},{"id":"el-milagro-tortilleria-chicago","name":"El Milagro Tortilleria","address":["3050 W 26th St"],"city":"Chicago","state":"IL","zip":"60623","lat":41.8448601,"long":-87.702179},{"id":"huaraches-dona-chio-chicago","name":"Huaraches Dona Chio","address":["1547 W Elmdale Ave"],"city":"Chicago","state":"IL","zip":"60660","lat":41.991189379274,"long":-87.669437226622},{"id":"taqueria-sabor-y-sazon-chicago","name":"Taqueria Sabor Y Sazon","address":["2018 S Blue Island Ave"],"city":"Chicago","state":"IL","zip":"60608","lat":41.854669,"long":-87.664222},{"id":"tonys-burrito-mex-chicago","name":"Tony's Burrito Mex","address":["1957 W Belmont Ave","Ste 1"],"city":"Chicago","state":"IL","zip":"60657","lat":41.9393,"long":-87.67816},{"id":"taqueria-and-bar-chicago","name":"Taqueria & Bar","address":["1450 W Webster Ave"],"city":"Chicago","state":"IL","zip":"60614","lat":41.9217415,"long":-87.665123},{"id":"diamante-azul-chicago","name":"Diamante Azul","address":["5661 N Clark St"],"city":"Chicago","state":"IL","zip":"60660","lat":41.984941393237,"long":-87.6689184609668},{"id":"el-milagro-tortilla-chicago-2","name":"El Milagro Tortilla","address":["1927 S Blue Island Ave"],"city":"Chicago","state":"IL","zip":"60608","lat":41.8551733,"long":-87.6631926},{"id":"birria-huentitan-restaurant-chicago","name":"Birria Huentitan Restaurant","address":["4019 W North Ave"],"city":"Chicago","state":"IL","zip":"60639","lat":41.9096907118376,"long":-87.7273342043479},{"id":"el-taco-veloz-chicago","name":"El Taco Veloz","address":["1745 W Chicago Ave"],"city":"Chicago","state":"IL","zip":"60622","lat":41.8957,"long":-87.67144},{"id":"tacos-garcia-chicago","name":"Tacos Garcia","address":["3329 W Armitage Ave"],"city":"Chicago","state":"IL","zip":"60647","lat":41.91722,"long":-87.7115462},{"id":"takito-kitchen-chicago","name":"Takito Kitchen","address":["2013 W Division St"],"city":"Chicago","state":"IL","zip":"60622","lat":41.90289,"long":-87.67784},{"id":"más-chicago-4","name":"más","address":["800 W Washington Blvd"],"city":"Chicago","state":"IL","zip":"60607","lat":41.8831722,"long":-87.6474028},{"id":"raymonds-tacos-chicago","name":"Raymond's Tacos","address":["3638 W Fullerton Ave"],"city":"Chicago","state":"IL","zip":"60647","lat":41.9248054781574,"long":-87.7185804769604},{"id":"allende-restaurant-chicago","name":"Allende Restaurant","address":["2408 N Lincoln Ave"],"city":"Chicago","state":"IL","zip":"60614","lat":41.9257122,"long":-87.6493817},{"id":"taqueria-tayahua-chicago","name":"Taqueria Tayahua","address":["2411 S Western Ave"],"city":"Chicago","state":"IL","zip":"60608","lat":41.84802,"long":-87.68516},{"id":"cemitas-puebla-chicago-5","name":"Cemitas Puebla","address":["817 W Fulton Market"],"city":"Chicago","state":"IL","zip":"60607","lat":41.8866266376123,"long":-87.648222470996},{"id":"masa-azul-chicago","name":"Masa Azul","address":["2901 W Diversey Ave"],"city":"Chicago","state":"IL","zip":"60647","lat":41.9318778,"long":-87.7002477},{"id":"la-cocina-chicago-7","name":"La Cocina","address":["2901 N Kedzie Ave"],"city":"Chicago","state":"IL","zip":"60618","lat":41.93398,"long":-87.70712},{"id":"el-maya-chicago-2","name":"El Maya","address":["1522 W Montrose Ave"],"city":"Chicago","state":"IL","zip":"60613","lat":41.9618515883894,"long":-87.6684951782227},{"id":"la-oaxaqueña-chicago-4","name":"La Oaxaqueña","address":["3382 N Milwaukee Ave"],"city":"Chicago","state":"IL","zip":"60641","lat":41.9426653,"long":-87.7299573},{"id":"flacos-tacos-chicago-2","name":"Flaco's Tacos","address":["46 E Chicago Ave"],"city":"Chicago","state":"IL","zip":"60611","lat":41.8968468,"long":-87.6265182},{"id":"taqueria-san-jose-chicago","name":"Taqueria San Jose","address":["3253 S Halsted St"],"city":"Chicago","state":"IL","zip":"60608","lat":41.83491,"long":-87.64584},{"id":"taco-and-burrito-express-3-chicago-2","name":"Taco & Burrito Express #3","address":["1547 N Ashland Ave"],"city":"Chicago","state":"IL","zip":"60622","lat":41.9101799,"long":-87.66725},{"id":"la-ciudad-chicago","name":"La Ciudad","address":["4515 N Sheridan Rd"],"city":"Chicago","state":"IL","zip":"60640","lat":41.9639538,"long":-87.6546151},{"id":"tamale-spaceship-chicago","name":"Tamale Spaceship","address":["1341 N Damen Ave"],"city":"Chicago","state":"IL","zip":"60622","lat":41.9062606,"long":-87.6771432},{"id":"el-burrito-mexicano-chicago","name":"El Burrito Mexicano","address":["936 W Addison St"],"city":"Chicago","state":"IL","zip":"60613","lat":41.9473849,"long":-87.653345},{"id":"la-encantada-chicago","name":"La Encantada","address":["3437 W North Ave"],"city":"Chicago","state":"IL","zip":"60647","lat":41.90975,"long":-87.71347},{"id":"quesadilla-la-reyna-del-sur-chicago-2","name":"Quesadilla La Reyna del Sur","address":["2235 N Western Ave"],"city":"Chicago","state":"IL","zip":"60647","lat":41.92273,"long":-87.68724},{"id":"el-metro-chicago-8","name":"El Metro","address":["1959 W Chicago Ave"],"city":"Chicago","state":"IL","zip":"60622","lat":41.8957940609792,"long":-87.676831810068},{"id":"sol-de-mexico-chicago","name":"Sol de Mexico","address":["3018 N Cicero Ave"],"city":"Chicago","state":"IL","zip":"60641","lat":41.93588,"long":-87.74717},{"id":"tio-luis-tacos-chicago","name":"Tio Luis Tacos","address":["3856 S Archer Ave"],"city":"Chicago","state":"IL","zip":"60632","lat":41.823674,"long":-87.689114},{"id":"yolis-tacos-chicago","name":"Yoli's Tacos","address":["2640 W Chicago AVe"],"city":"Chicago","state":"IL","zip":"60622","lat":41.89594,"long":-87.69342},{"id":"asada-mexican-grill-chicago-4","name":"Asada Mexican Grill","address":["180 N Wells St"],"city":"Chicago","state":"IL","zip":"60606","lat":41.8852898915081,"long":-87.6340918936048},{"id":"memos-tacos-chicago","name":"Memo's Tacos","address":["6322 W Grand Ave"],"city":"Chicago","state":"IL","zip":"60639","lat":41.92242,"long":-87.78376},{"id":"angelas-burrito-style-chicago","name":"Angela's Burrito Style","address":["2556 N Clark St"],"city":"Chicago","state":"IL","zip":"60614","lat":41.9291318,"long":-87.6427642},{"id":"de-cero-chicago-4","name":"De Cero","address":["814 W Randolph St"],"city":"Chicago","state":"IL","zip":"60607","lat":41.8846265,"long":-87.6481643},{"id":"el-azteca-chicago","name":"El Azteca","address":["5011 W Fullerton Ave"],"city":"Chicago","state":"IL","zip":"60639","lat":41.92387,"long":-87.75173},{"id":"moms-old-recipe-mexican-restaurant-chicago","name":"Mom's Old Recipe Mexican Restaurant","address":["5760 N Milwaukee Ave"],"city":"Chicago","state":"IL","zip":"60646","lat":41.98608,"long":-87.77769},{"id":"taqueria-el-jardin-chicago","name":"Taqueria El Jardin","address":["1303 W Huron St"],"city":"Chicago","state":"IL","zip":"60622","lat":41.89412,"long":-87.6598},{"id":"esencia-urban-kitchen-chicago","name":"Esencia Urban Kitchen","address":["3351 N Broadway St"],"city":"Chicago","state":"IL","zip":"60657","lat":41.9432065013836,"long":-87.6445358158359},{"id":"las-asadas-fresh-mexican-grill-and-taqueria-chicago","name":"Las Asadas Fresh Mexican Grill & Taqueria","address":["2045 N Western Ave"],"city":"Chicago","state":"IL","zip":"60647","lat":41.9189099,"long":-87.68713},{"id":"la-amistad-restaurant-chicago","name":"La Amistad Restaurant","address":["1914 W Montrose Ave"],"city":"Chicago","state":"IL","zip":"60613","lat":41.961656180487,"long":-87.676648298532},{"id":"carbon-chicago-3","name":"Carbon","address":["810 N Marshfield Ave"],"city":"Chicago","state":"IL","zip":"60622","lat":41.8962686,"long":-87.6686349},{"id":"dona-natys-tacos-chicago","name":"Dona Naty's Tacos","address":["1815 W Chicago Ave"],"city":"Chicago","state":"IL","zip":"60622","lat":41.89568,"long":-87.67287},{"id":"el-taconazo-la-fiesta-chicago","name":"El Taconazo La Fiesta","address":["7146 W Diversey Ave"],"city":"Chicago","state":"IL","zip":"60634","lat":41.9310199,"long":-87.8059},{"id":"las-palmas-chicago","name":"Las Palmas","address":["1835 W North Ave"],"city":"Chicago","state":"IL","zip":"60622","lat":41.910266,"long":-87.673935},{"id":"taqueria-el-chorrito-chicago-2","name":"Taqueria El Chorrito","address":["6404 N Clark St"],"city":"Chicago","state":"IL","zip":"60686","lat":41.998252,"long":-87.670269},{"id":"taco-and-burrito-house-chicago-2","name":"Taco & Burrito House","address":["3939 N Broadway"],"city":"Chicago","state":"IL","zip":"60613","lat":41.9537383,"long":-87.6497702},{"id":"rubis-at-the-new-maxwell-street-market-chicago","name":"Rubi's at the New Maxwell Street Market","address":["800 S DesPlaines St"],"city":"Chicago","state":"IL","zip":"60607","lat":41.87183,"long":-87.6439285},{"id":"de-noche-mexicana-chicago","name":"De Noche Mexicana","address":["2710 N Milwaukee Ave"],"city":"Chicago","state":"IL","zip":"60647","lat":41.9303748868813,"long":-87.7099578133012},{"id":"el-taco-sabroso-chicago","name":"El Taco Sabroso","address":["8346 S Pulaski Rd"],"city":"Chicago","state":"IL","zip":"60652","lat":41.74082,"long":-87.72202},{"id":"dos-riccos-chicago-4","name":"Dos Ricco's","address":["4064 N Lincoln Ave"],"city":"Chicago","state":"IL","zip":"60618","lat":41.955825278932,"long":-87.6801295951009},{"id":"2-amigos-chicago","name":"2 Amigos","address":["2320 N Milwaukee Ave"],"city":"Chicago","state":"IL","zip":"60647","lat":41.9232374,"long":-87.6981656},{"id":"restaurant-cuetzala-gro-chicago","name":"Restaurant Cuetzala Gro","address":["7360 N Clark St"],"city":"Chicago","state":"IL","zip":"60626","lat":42.0153336,"long":-87.6752581},{"id":"angels-chicago","name":"Angel's","address":["230 S Ashland Ave"],"city":"Chicago","state":"IL","zip":"60607","lat":41.87793,"long":-87.66707},{"id":"coyotes-restaurant-chicago","name":"Coyotes Restaurant","address":["1451 W 18th St"],"city":"Chicago","state":"IL","zip":"60608","lat":41.8577556,"long":-87.6634885},{"id":"mayan-palace-mexican-cuisine-chicago","name":"Mayan Palace Mexican Cuisine","address":["2703 N Halsted St"],"city":"Chicago","state":"IL","zip":"60614","lat":41.93173,"long":-87.6486},{"id":"mini-palapita-chicago","name":"Mini Palapita","address":["4968 N Elston Ave"],"city":"Chicago","state":"IL","zip":"60630","lat":41.97058,"long":-87.7447},{"id":"la-chaparrita-grocery-chicago","name":"La Chaparrita Grocery","address":["2500 S Whipple St"],"city":"Chicago","state":"IL","zip":"60623","lat":41.8462789291407,"long":-87.7015772333155},{"id":"mr-salsa-chicago","name":"Mr. Salsa","address":["1025 W Montrose Ave"],"city":"Chicago","state":"IL","zip":"60613","lat":41.961657,"long":-87.6554485},{"id":"poncitlan-jalisco-taqueria-chicago","name":"Poncitlan Jalisco Taqueria","address":["4460 W Diversey Ave"],"city":"Chicago","state":"IL","zip":"60639","lat":41.9317649,"long":-87.7385838},{"id":"carbon-chicago","name":"Carbon","address":["300 W 26th St"],"city":"Chicago","state":"IL","zip":"60616","lat":41.845764,"long":-87.634798},{"id":"janitzio-burrito-chicago","name":"Janitzio Burrito","address":["2933 N Broadway Ave"],"city":"Chicago","state":"IL","zip":"60657","lat":41.9447199,"long":-87.64559},{"id":"carniceria-la-zacatecana-chicago","name":"Carniceria La Zacatecana","address":["3024 N California"],"city":"Chicago","state":"IL","zip":"60618","lat":41.93652,"long":-87.69808},{"id":"el-gordo-restaurant-chicago-2","name":"El Gordo Restaurant","address":["5746 W Belmont Ave"],"city":"Chicago","state":"IL","zip":"60634","lat":41.9386493,"long":-87.7707808},{"id":"la-pasadita-restaurant-chicago","name":"La Pasadita Restaurant","address":["1140 N Ashland Ave"],"city":"Chicago","state":"IL","zip":"60622","lat":41.9027,"long":-87.667745},{"id":"el-torito-restaurant-and-taqueria-chicago","name":"El Torito Restaurant & Taqueria","address":["1825 W Montrose Ave"],"city":"Chicago","state":"IL","zip":"60613","lat":41.9613651,"long":-87.675585},{"id":"mixteco-grill-chicago-2","name":"Mixteco Grill","address":["1601 W Montrose Ave"],"city":"Chicago","state":"IL","zip":"60613","lat":41.961436782471,"long":-87.669483212404},{"id":"taqueria-la-mexicana-chicago","name":"Taqueria La Mexicana","address":["815 W 35th St"],"city":"Chicago","state":"IL","zip":"60609","lat":41.8306151,"long":-87.6465455},{"id":"tacos-erendira-chicago-2","name":"Tacos Erendira","address":["3207 S Halsted St"],"city":"Chicago","state":"IL","zip":"60608","lat":41.83589,"long":-87.64587},{"id":"leña-brava-chicago-2","name":"Leña Brava","address":["900-902 W Randolph St"],"city":"Chicago","state":"IL","zip":"60607","lat":41.88465,"long":-87.65007},{"id":"el-famous-burrito-chicago","name":"El Famous Burrito","address":["7047 N Clark St"],"city":"Chicago","state":"IL","zip":"60626","lat":42.01044,"long":-87.67395},{"id":"taco-and-burrito-house-chicago-4","name":"Taco & Burrito House","address":["3038 N Broadway St"],"city":"Chicago","state":"IL","zip":"60657","lat":41.9376647506572,"long":-87.6445039613769},{"id":"lindo-guadalajara-chicago","name":"Lindo Guadalajara","address":["4761 N Clark St"],"city":"Chicago","state":"IL","zip":"60640","lat":41.9687004,"long":-87.6672668},{"id":"guerreros-tacos-and-pizza-chicago","name":"Guerrero's Tacos & Pizza","address":["2534 W Division St"],"city":"Chicago","state":"IL","zip":"60622","lat":41.9032784,"long":-87.6908875},{"id":"zacatacos-chicago","name":"Zacatacos","address":["3949 W 71st St"],"city":"Chicago","state":"IL","zip":"60629","lat":41.76383,"long":-87.72187},{"id":"torteria-san-lenchito-chicago-3","name":"Torteria San Lenchito","address":["4810 N Drake Ave"],"city":"Chicago","state":"IL","zip":"60625","lat":41.9686651,"long":-87.7171894},{"id":"la-cabana-de-don-luis-chicago","name":"La Cabana de Don Luis","address":["5157 N Lincoln Ave"],"city":"Chicago","state":"IL","zip":"60625","lat":41.9752769,"long":-87.6921136},{"id":"pollo-express-chicago-2","name":"Pollo Express","address":["1315 W 18th St"],"city":"Chicago","state":"IL","zip":"60608","lat":41.85764,"long":-87.65954},{"id":"the-general-chicago-2","name":"The General","address":["2528 N California Ave"],"city":"Chicago","state":"IL","zip":"60647","lat":41.92737846759,"long":-87.6976759119732},{"id":"tacos-don-cuco-chicago","name":"Tacos Don Cuco","address":["1847 W 47th St"],"city":"Chicago","state":"IL","zip":"60609","lat":41.8083897,"long":-87.6716714},{"id":"carniceria-guanajuato-chicago-5","name":"Carniceria Guanajuato","address":["3140 N California Ave"],"city":"Chicago","state":"IL","zip":"60618","lat":41.9388101,"long":-87.698158},{"id":"tierra-caliente-restaurant-chicago","name":"Tierra Caliente Restaurant","address":["4070 S Archer Ave"],"city":"Chicago","state":"IL","zip":"60632","lat":41.8197,"long":-87.69557},{"id":"habanero-baja-grill-chicago-5","name":"Habanero Baja Grill","address":["2 N Riverside Plz"],"city":"Chicago","state":"IL","zip":"60606","lat":41.8824427,"long":-87.6394681},{"id":"rockys-tacos-chicago-2","name":"Rocky's Tacos","address":["7043 N Clark St"],"city":"Chicago","state":"IL","zip":"60626","lat":42.010370595551,"long":-87.674093593863},{"id":"mi-linda-hacienda-chicago","name":"Mi Linda Hacienda","address":["4406 W Armitage Ave"],"city":"Chicago","state":"IL","zip":"60639","lat":41.9173088,"long":-87.7367096},{"id":"spanglish-mexican-kitchen-chicago","name":"Spanglish Mexican Kitchen","address":["555 S State St"],"city":"Chicago","state":"IL","zip":"60605","lat":41.8747132842627,"long":-87.6274325698614},{"id":"don-chema-restaurant-chicago-3","name":"Don Chema Restaurant","address":["2331 N California Ave"],"city":"Chicago","state":"IL","zip":"60647","lat":41.92375,"long":-87.69704}]
